community_code,community_name,aliases,district,subdistrict,address,longitude,latitude,far_ratio,build_year,base_score,road_note
BJ-CP-XLONGC,新龙城,回龙观新龙城|新龙城社区|新龙城小区,昌平区,回龙观,北京市昌平区回龙观新龙城,116.3408,40.0707,2.4,2005,77,环路敏感型小区
BJ-CY-WJXY4,望京西园四区,望京西园4区|望京西园四区小区,朝阳区,望京,北京市朝阳区望京西园四区,116.4761,39.9998,2.1,2002,72,主路与商业双重影响
BJ-HD-WLHY,万柳华苑,万柳华苑小区|万柳华苑社区,海淀区,万柳,北京市海淀区万柳华苑,116.3002,39.9783,1.8,2010,84,成熟改善型住区
BJ-TZ-GLJY,广联家园,广联家园小区,通州区,九棵树,北京市通州区广联家园,116.6651,39.9018,2.6,2008,74,区域道路影响中等
BJ-FT-FHTY,芳华庭院,芳华庭院小区,丰台区,方庄,北京市丰台区芳华庭院,116.4328,39.8659,2.0,2013,80,内向型居住环境较好
